"SITE","REGION","LAT","LONG","N_POTTERYSTYLES","N_DATES","N_DATES_CLASS_Ia","N_DATES_CLASS_Ib","N_DATES_CLASS_Ic","N_DATES_CLASS_Id","N_DATES_CLASS_II","N_DATES_CLASS_III"
"Abang Minko'o","A",2.33,11.42,1,6,0,6,0,0,0,0
"Abong Mbang","A",3.99,13.18,0,1,0,0,0,0,1,0
"Akak 1","A",5.51,9.37,0,1,0,1,0,0,0,0
"Akok Benyat 2","A",2.4,10.07,0,3,0,0,0,0,3,0
"Akom","A",2.4,12.42,2,3,3,0,0,0,0,0
"Akonetye","A",2.48,11.17,3,22,7,15,0,0,0,0
"Avebe","A",2.41,12.54,0,1,0,1,0,0,0,0
"Avoh","A",4.27,11.24,1,1,1,0,0,0,0,0
"Bafounda","A",5.54,10.33,0,1,0,0,0,0,1,0
"Bafoussam","A",5.55,10.32,0,1,0,0,0,0,1,0
"Bagofit","A",3.39,13.86,0,3,0,3,0,0,0,0
"Bali River","A",5.77,14.22,0,2,0,1,0,0,1,0
"Bandewouri 1","A",3.06,10.18,0,1,0,1,0,0,0,0
"Bankouop","A",5.63,10.58,0,1,0,0,0,0,1,0
"Bertoua","A",4.49,13.62,0,2,0,0,0,0,2,0
"Bidjouka","A",3.14,10.5,1,2,2,0,0,0,0,0
"Bidou","A",3.03,10.08,1,1,1,0,0,0,0,0
"Binguela II","A",3.74,11.37,0,3,0,3,0,0,0,0
"Bissiang","A",3,10.02,1,2,2,0,0,0,0,0
"Bonda","A",2.19,16.08,1,0,0,0,0,0,0,0
"Bonga","A",1.93,15.67,2,0,0,0,0,0,0,0
"Boulou River","A",1.92,15.78,0,1,0,0,0,0,1,0
"Boussibilinga 1","A",2.74,9.88,0,1,0,1,0,0,0,0
"Bwambe-Beach","A",2.9,9.9,0,6,0,6,0,0,0,0
"Bwambé-Sommet (Est)","A",2.89,9.9,2,22,18,4,0,0,0,0
"Campo","A",2.38,9.83,2,34,21,8,0,0,5,0
"Campo Beach","A",2.35,9.83,0,1,0,1,0,0,0,0
"Dibamba","A",4,9.82,5,43,39,3,0,0,1,0
"Dombè","A",2.96,9.95,1,2,2,0,0,0,0,0
"Doumba","A",4.58,12.22,0,1,0,1,0,0,0,0
"Ebolowa","A",2.9,11.24,0,1,0,0,0,0,1,0
"Eboundja 3","A",2.79,9.89,0,3,0,2,0,0,1,0
"Edea","A",3.82,10.11,0,1,0,0,0,0,1,0
"Efoulan 1","A",2.39,12.46,1,2,1,1,0,0,0,0
"Ekak","A",4,11.42,0,1,0,1,0,0,0,0
"Elig-Kono","A",4.15,11.45,0,2,0,2,0,0,0,0
"Elleng","A",2.39,12.43,0,1,0,1,0,0,0,0
"Eseke","A",3.57,10.82,0,2,0,0,0,0,2,0
"Essong Missang","A",4.09,11.58,0,1,0,1,0,0,0,0
"Ewani 1","A",5.21,9.44,0,1,0,1,0,0,0,0
"Ewani 6","A",5.19,9.43,0,1,0,1,0,0,0,0
"Ewani 7","A",5.2,9.41,0,1,0,1,0,0,0,0
"Ewani 9","A",5.22,9.45,0,1,0,1,0,0,0,0
"Ewankang","A",4.8,12.85,0,1,0,1,0,0,0,0
"Ezezang","A",4.03,11.5,0,5,0,5,0,0,0,0
"Fiye Nkwi","A",5.1,10.1,0,1,0,1,0,0,0,0
"Gba","A",5.65,11.46,0,2,0,2,0,0,0,0
"Gbagbale","A",2.08,16.08,1,0,0,0,0,0,0,0
"GPS051","A",2.5,12.03,0,3,0,3,0,0,0,0
"Kokobuma 1","A",5.42,9.65,0,1,0,0,1,0,0,0
"Kong","A",5.69,12,0,1,0,0,0,0,1,0
"Kongolo/Pk 2/53 725","A",4.54,13.5,0,1,0,1,0,0,0,0
"Koukony","A",4.85,13.06,0,1,0,1,0,0,0,0
"Kpwé Monekpwé","A",3.64,9.78,0,3,0,3,0,0,0,0
"Kribi","A",2.93,9.91,1,6,2,4,0,0,0,0
"Kribi-Mpoengu","A",2.93,9.91,2,4,4,0,0,0,0,0
"Kribi-Mpolongwe","A",2.93,9.91,2,9,6,3,0,0,0,0
"Kribi-Talla","A",2.93,9.91,2,3,3,0,0,0,0,0
"Kribi Hotel","A",2.93,9.9,0,1,0,1,0,0,0,0
"Lac Ossa","A",3.78,10.01,0,4,0,4,0,0,0,0
"Leboudi","A",3.92,11.42,0,1,0,1,0,0,0,0
"Lobe","A",2.87,9.9,0,2,0,0,0,0,2,0
"Lobethal","A",3.64,9.79,0,1,0,1,0,0,0,0
"Locality 88 (Mbengue)","A",3.8,10.16,0,1,0,0,0,0,1,0
"Lolabé","A",2.69,9.85,1,2,2,0,0,0,0,0
"Lom 1","A",5.4,13.49,0,1,0,1,0,0,0,0
"Makalaya","A",3.27,14.04,0,1,0,0,0,0,1,0
"Makoure","A",3.06,10.17,0,1,0,1,0,0,0,0
"Malapa","A",2.03,15.25,0,1,0,1,0,0,0,0
"Malongo 1","A",2.73,9.87,1,1,1,0,0,0,0,0
"Mameli 1","A",5.15,9.33,0,1,0,1,0,0,0,0
"Mampang","A",3.58,13.12,0,2,0,2,0,0,0,0
"Mbenja","A",1.85,15.83,3,0,0,0,0,0,0,0
"Mbol","A",3.5,14.98,0,1,0,0,0,0,1,0
"Messok","A",3.08,14.06,0,4,0,1,1,0,2,0
"Meveme","A",2.41,13.11,0,1,0,1,0,0,0,0
"Meyang","A",4.78,12.69,0,2,0,2,0,0,0,0
"Mfomakap/Nkometou","A",4.05,11.55,1,10,3,6,0,0,1,0
"Mimboman","A",3.85,11.53,0,1,0,1,0,0,0,0
"Mindourou","A",3.56,13.4,0,2,0,1,0,0,1,0
"Mintyaminyoumin","A",3.02,12.03,0,3,0,3,0,0,0,0
"Minyin","A",2.38,11.33,1,6,2,4,0,0,0,0
"Mouanko-Epolo","A",3.65,9.8,0,1,0,1,0,0,0,0
"Mouanko-Lobethal","A",3.64,9.78,2,17,3,13,0,0,1,0
"Nanga Eboko","A",4.65,12.39,0,2,0,2,0,0,0,0
"Nanga Eboko/Locality 81-2","A",4.65,12.39,0,1,0,0,0,0,1,0
"Ndama","A",3.64,14.46,0,2,0,1,0,0,1,0
"Ndindan","A",3.91,11.5,1,8,3,4,0,0,1,0
"Nditam","A",5.34,11.33,0,7,0,6,1,0,0,0
"Nditam Mosquée/Ndtam Moauée","A",5.37,11.23,0,1,0,1,0,0,0,0
"Ndjore","A",4.4,11.83,0,5,0,5,0,0,0,0
"Ndokoa","A",4.44,11.86,0,1,0,1,0,0,0,0
"Ndtoua","A",3.06,10.22,0,3,0,3,0,0,0,0
"Nfeitok 1","A",5.57,9.37,0,1,0,1,0,0,0,0
"Ngamboula","A",4.56,13.83,0,1,0,0,0,0,1,0
"Ngoume","A",5.48,11.4,0,10,0,9,1,0,0,0
"Ngoume PK 35","A",5.48,11.4,0,2,0,2,0,0,0,0
"Ngoume PK 36","A",5.48,11.4,0,1,0,1,0,0,0,0
"Ngoumou","A",3.6,11.32,0,1,0,1,0,0,0,0
"Nguila","A",4.72,11.68,0,2,0,2,0,0,0,0
"Ngweu","A",5.6,11.36,0,1,0,1,0,0,0,0
"Nkang","A",4.27,11.32,1,8,8,0,0,0,0,0
"Nkpwala-Esse","A",2.97,12.07,0,5,0,5,0,0,0,0
"Nlendé Dibe 3","A",2.76,9.88,0,1,0,1,0,0,0,0
"Nya Zanga","A",2.5,12.02,0,11,0,11,0,0,0,0
"Obobogo","A",3.82,11.5,1,12,8,1,0,0,3,0
"Obokoue","A",3.65,11.35,0,1,0,1,0,0,0,0
"Okolo","A",3.93,11.52,1,3,3,0,0,0,0,0
"Oliga","A",3.9,11.5,0,12,0,12,0,0,0,0
"Oloundou","A",2.48,12.09,0,1,0,1,0,0,0,0
"Omong","A",3.88,10.9,0,2,0,0,0,0,2,0
"Ongot","A",3.85,11.38,0,2,0,2,0,0,0,0
"Otto Mbong","A",2.4,12.51,1,1,1,0,0,0,0,0
"Ouélé Maroua","A",4.47,13.51,0,4,0,1,1,0,2,0
"Ozom","A",3.91,11.42,0,1,0,1,0,0,0,0
"Pallisco logging concession (Area1)","A",3.38,14.03,0,10,0,0,0,0,10,0
"Pan Maguenda","A",4.92,11.03,0,2,0,2,0,0,0,0
"Pan Nsas","A",4.92,11.03,0,2,0,2,0,0,0,0
"Pangar","A",5.64,13.72,0,1,0,1,0,0,0,0
"Pong Solo","A",4.12,11.28,0,1,0,0,1,0,0,0
"PS12","A",3.25,15.39,0,2,0,0,0,0,2,0
"PS3","A",2.06,15.48,0,2,0,0,0,0,2,0
"Safa CAM Site","A",3.79,10.02,0,2,0,2,0,0,0,0
"Sangmelima","A",2.94,11.99,0,1,0,0,0,1,0,0
"SFID logging concession (Area2 T4)","A",4.01,14.18,0,7,0,0,0,0,7,0
"SFID logging concession (Area2 T5)","A",3.85,14.22,0,7,0,0,0,0,7,0
"SFID logging concession (Area2 T6)","A",3.47,14.31,0,10,0,0,0,0,10,0
"Shum Laka","A",5.86,10.08,0,12,0,12,0,0,0,0
"Wantamo/Pk 2/4 225","A",4.78,14.27,0,2,0,2,0,0,0,0
"Wijma logging concession (Area3 T1)","A",2.29,10.43,0,8,0,0,0,0,8,0
"Wijma logging concession (Area3 T2)","A",2.44,10.58,0,6,0,0,0,0,6,0
"Wijma logging concession (Area3 T3)","A",2.46,10.66,0,11,0,0,0,0,11,0
"Yatou","A",3.63,9.82,0,5,0,5,0,0,0,0
"Yebi","A",4.97,13.32,0,1,0,1,0,0,0,0
"Zili","A",4.49,11.98,0,1,0,1,0,0,0,0
"Zoatoupsi","A",3.81,11.39,0,1,0,1,0,0,0,0
"85/22","B",1.92,11.59,0,1,0,1,0,0,0,0
"85/26","B",2.03,11.5,0,1,0,1,0,0,0,0
"Akom 1","B",1.88,9.85,0,1,0,1,0,0,0,0
"Angondje","B",0.51,9.42,2,2,2,0,0,0,0,0
"Anzem 1","B",0.6,10.5,0,1,0,1,0,0,0,0
"Awoungou","B",0.4,9.45,3,0,0,0,0,0,0,0
"Ayeme 1","B",0.2,9.74,1,1,0,0,0,0,0,1
"Ayene","B",1.08,9.77,1,1,1,0,0,0,0,0
"Azobe 1","B",-0.2,11.62,1,1,1,0,0,0,0,0
"Batanga I","B",-1.43,9.13,0,1,0,1,0,0,0,0
"Benguie 7","B",0.29,11.38,1,1,1,0,0,0,0,0
"Bikélé, Cocobeach","B",0.94,9.56,1,0,0,0,0,0,0,0
"Bolokoboue","B",0.64,9.41,0,1,0,0,0,0,0,1
"Bras mort Ogooue","B",0.67,12.83,0,1,0,0,0,0,0,1
"Cap Esterias","B",0.58,9.34,1,1,1,0,0,0,0,0
"Cap Lopez","B",-0.77,8.78,0,3,0,0,0,0,0,3
"Charbonnage butte 56","B",0.45,9.47,0,3,0,1,0,0,0,2
"Corisco","B",0.92,9.32,3,22,22,0,0,0,0,0
"Ditouba","B",-3.27,10.68,0,2,0,0,2,0,0,0
"Ebel Alembe 1","B",0.13,11.11,2,3,3,0,0,0,0,0
"Ebel Alembe 2","B",0.13,11.12,1,1,1,0,0,0,0,0
"Elarmekora 3","B",-0.09,11.17,1,1,1,0,0,0,0,0
"Elarmitang","B",2.16,12.14,0,1,0,1,0,0,0,0
"Epona","B",-0.11,11.15,0,1,0,0,0,0,1,0
"Epona 1","B",-0.09,11.14,1,1,0,0,0,0,1,0
"Epona 2","B",-0.1,11.15,2,2,0,1,0,0,1,0
"Evinayong","B",0.6,9.65,1,2,0,0,0,0,0,2
"Fougamou-Lambarene Pk 12","B",-1.1,10.61,0,1,0,0,0,0,1,0
"Franceville","B",-1.61,13.55,1,0,0,0,0,0,0,0
"HVL 1","B",-0.24,11.43,0,1,0,0,1,0,0,0
"HVL 4","B",-0.57,11.6,0,2,0,2,0,0,0,0
"Iguela 2","B",-1.92,9.32,0,1,0,0,0,0,1,0
"Ikengue 1","B",-1.5,9.5,1,9,0,0,6,0,3,0
"Issemeyo 4","B",0.3,11.39,1,2,2,0,0,0,0,0
"Issemeyo 7","B",0.3,11.4,1,1,1,0,0,0,0,0
"Kafele 2","B",0.2,10.04,1,1,1,0,0,0,0,0
"Kamalete","B",-0.7,11.77,0,5,0,0,0,0,0,5
"Kango 2","B",0.16,10.12,1,1,0,1,0,0,0,0
"Kango 5","B",0.2,10.08,2,5,4,1,0,0,0,0
"Komo","B",0.37,10.12,0,1,0,0,1,0,0,0
"Koualessis","B",1.39,11.64,0,4,0,3,0,0,1,0
"Lac Bleu de Mouila","B",-1.92,11.02,0,3,0,0,3,0,0,0
"Lac Noir de Ndende","B",-2.23,11.33,0,1,0,0,0,0,1,0
"Lalala","B",0.37,9.48,1,0,0,0,0,0,0,0
"Lalara 1","B",0.35,11.44,1,2,2,0,0,0,0,0
"Lebombi","B",-1.5,13.37,0,4,0,4,0,0,0,0
"Lefob 2","B",-0.24,11.43,0,1,0,1,0,0,0,0
"Leledi 1","B",-0.51,11.55,0,1,0,1,0,0,0,0
"Leledi 2","B",-0.34,11.51,0,2,0,2,0,0,0,0
"Lindili 1","B",-0.16,11.5,1,6,6,0,0,0,0,0
"Lope 10","B",-0.18,11.6,1,2,1,0,1,0,0,0
"Lope 12","B",-0.21,11.59,1,1,1,0,0,0,0,0
"Lope 15","B",-0.21,11.59,1,1,1,0,0,0,0,0
"Lope 2","B",-0.22,11.59,1,2,1,0,1,0,0,0
"Lope 4","B",-0.17,11.61,0,1,0,1,0,0,0,0
"Lope 5","B",-0.16,11.61,1,2,2,0,0,0,0,0
"Lope 6","B",-0.21,11.59,0,1,0,0,0,0,1,0
"Lowé","B",0.3,9.51,2,0,0,0,0,0,0,0
"Lycée Technique Omar Bongo","B",0.32,9.51,1,0,0,0,0,0,0,0
"M‘Bam","B",1.34,11.52,0,1,0,1,0,0,0,0
"Maboue 1","B",-0.14,11.53,1,2,0,0,2,0,0,0
"Makana","B",-1.63,13.55,0,1,0,1,0,0,0,0
"Makokou","B",0.57,12.86,0,2,0,1,0,0,1,0
"Malekou","B",0.45,9.48,1,2,1,0,1,0,0,0
"Mandilou 2","B",-1.27,10.62,0,1,0,0,0,0,1,0
"Mandilou 3","B",-1.27,10.62,0,1,0,0,1,0,0,0
"Massango","B",-1.63,13.14,0,1,0,0,1,0,0,0
"Mbama 1","B",-0.1,11.8,0,1,0,1,0,0,0,0
"Mbilape 2","B",-0.88,9.15,0,1,0,0,0,0,1,0
"Mbilape 4","B",-0.88,9.15,1,4,0,1,3,0,0,0
"Mikouloungou 4","B",-1.63,13.35,0,1,0,1,0,0,0,0
"Mimongo","B",-0.92,10.45,0,3,0,3,0,0,0,0
"Mina, Leconi","B",-1.58,14.26,0,1,0,1,0,0,0,0
"Mingoue 1","B",-0.18,11.36,0,1,0,1,0,0,0,0
"Mingoue 11","B",-0.18,11.36,0,2,0,0,0,0,2,0
"Mingoue 5","B",-0.18,11.36,0,1,0,0,1,0,0,0
"Mitendi 1","B",-0.65,11.69,0,1,0,0,1,0,0,0
"Moanda 1","B",-1.56,13.23,0,7,0,1,4,0,2,0
"Moanda 2","B",-1.56,13.23,0,5,0,2,3,0,0,0
"Moanda Gare","B",-1.56,13.18,0,1,0,0,1,0,0,0
"Moanda Pk 21,5","B",-1.58,13.42,0,1,0,1,0,0,0,0
"Moanda Pk 28,5","B",-1.62,13.47,0,1,0,1,0,0,0,0
"Moanda Pk 29,5","B",-1.62,13.47,0,1,0,0,1,0,0,0
"Mouila 1","B",-1.99,11.03,0,1,0,0,1,0,0,0
"Mouila 2","B",-1.98,11.03,0,1,0,1,0,0,0,0
"Ndjolé CS","B",-0.18,10.82,1,0,0,0,0,0,0,0
"Ndjole Pk 5","B",-0.13,10.72,1,1,1,0,0,0,0,0
"Ndzomossi","B",1.64,11.61,0,1,0,1,0,0,0,0
"Nkol Ogoum 2","B",0.45,9.5,1,1,1,0,0,0,0,0
"Obaka 4","B",-1.5,11.5,0,1,0,1,0,0,0,0
"Ofoubou 16","B",-1.67,9.91,1,1,0,1,0,0,0,0
"Ofoubou 33","B",-1.41,10.07,0,1,0,1,0,0,0,0
"Ofoubou 5","B",-1.66,9.92,1,1,0,1,0,0,0,0
"Okala 1","B",0.49,9.41,2,13,10,3,0,0,0,0
"Okanda 1/Mont Brazza","B",-0.13,11.59,2,4,3,0,0,0,1,0
"Okanda 2","B",-0.12,11.57,1,1,1,0,0,0,0,0
"Okanda 4","B",-0.11,11.51,1,0,0,0,0,0,0,0
"Okanda 5","B",-0.11,11.55,2,4,3,0,1,0,0,0
"Okanda 6","B",-0.12,11.57,1,3,2,0,1,0,0,0
"Otoumbi 1","B",-0.07,11.09,0,2,0,2,0,0,0,0
"Otoumbi 10","B",-0.07,11.12,1,1,1,0,0,0,0,0
"Otoumbi 13","B",-0.08,11.1,2,1,1,0,0,0,0,0
"Otoumbi 15","B",-0.08,11.12,1,0,0,0,0,0,0,0
"Otoumbi 16","B",-0.08,11.12,1,0,0,0,0,0,0,0
"Otoumbi 2","B",-0.07,11.09,0,3,0,0,0,0,3,0
"Otoumbi 3","B",-0.07,11.12,1,1,1,0,0,0,0,0
"Otoumbi 4","B",-0.07,11.12,1,1,1,0,0,0,0,0
"Otoumbi 5","B",-0.06,11.12,2,4,4,0,0,0,0,0
"Otoumbi 8","B",-0.05,11.12,2,1,1,0,0,0,0,0
"Oumondo 1","B",-0.59,11.54,0,1,0,1,0,0,0,0
"Oumondo 2","B",-0.59,11.54,0,1,0,1,0,0,0,0
"Oumoundo 4","B",-0.59,11.53,0,1,0,0,0,0,1,0
"Oveng 1","B",0.48,9.52,1,5,1,0,0,0,0,4
"Oyem 1","B",1.59,11.57,0,1,0,0,1,0,0,0
"Oyem 2","B",1.57,11.57,0,2,0,2,0,0,0,0
"Plateau de Mpassa","B",-1.7,13.63,0,3,0,1,0,0,2,0
"Remboue 1","B",-0.18,9.94,1,1,1,0,0,0,0,0
"Remboue 11","B",-0.18,9.95,1,1,1,0,0,0,0,0
"Remboue 15","B",-0.19,9.95,1,2,1,0,0,0,0,1
"Remboue 2","B",0.12,9.73,0,1,0,1,0,0,0,0
"Remboue 3","B",-0.2,9.96,1,1,1,0,0,0,0,0
"Riviere Denis 1","B",0.32,9.35,0,2,0,0,0,0,0,2
"Riviere Denis 2","B",0.32,9.35,0,3,0,1,1,0,1,0
"Rivière Ogolo 1","B",0.31,9.34,1,0,0,0,0,0,0,0
"Sablière","B",0.5,9.38,1,2,1,0,0,0,1,0
"Soukoudzap","B",1.67,11.51,0,1,0,1,0,0,0,0
"Toube 1","B",-0.04,11.59,1,2,1,0,1,0,0,0
"Viafé 3","B",0.2,11.38,1,1,1,0,0,0,0,0
"Viafée 5","B",0.33,11.41,1,1,1,0,0,0,0,0
"Yombi Pk. 8","B",-1.42,10.63,0,1,0,0,1,0,0,0
"Abala","C",-1.33,15.53,0,1,0,0,0,0,1,0
"Amba-Kinshasa","C",-4.43,15.3,0,1,0,0,0,0,1,0
"ARCH 19","C",-4.38,11.61,1,0,0,0,0,0,0,0
"ARCH 22","C",-4.39,11.62,1,0,0,0,0,0,0,0
"ARCH 24","C",-4.38,11.62,3,0,0,0,0,0,0,0
"ARCH 27","C",-4.36,11.63,1,0,0,0,0,0,0,0
"ARCH 28","C",-4.36,11.62,2,0,0,0,0,0,0,0
"ARCH 29","C",-4.34,11.66,1,0,0,0,0,0,0,0
"ARCH 31","C",-4.36,11.59,2,0,0,0,0,0,0,0
"ARCH 32 (BP113)","C",-4.36,11.59,1,0,0,0,0,0,0,0
"ARCH 33","C",-4.36,11.59,1,0,0,0,0,0,0,0
"ARCH 33 (Lamba)","C",-4.36,11.59,2,0,0,0,0,0,0,0
"ARCH 34 (Lac Ndembo)","C",-4.35,11.65,1,0,0,0,0,0,0,0
"Bangu","C",-5.54,14.45,1,0,0,0,0,0,0,0
"Biala","C",-3.87,13.25,0,1,0,1,0,0,0,0
"Bime (Kibouende)","C",-4.16,15.18,0,2,0,2,0,0,0,0
"Bitorri","C",-3.9,14.5,0,1,0,0,0,0,0,1
"Boma","C",-5.85,13.07,0,1,0,1,0,0,0,0
"Boukoyi","C",-4.45,13.59,1,0,0,0,0,0,0,0
"Bouzanga","C",-4.44,13.6,1,0,0,0,0,0,0,0
"BP 113","C",-4.36,11.59,2,6,6,0,0,0,0,0
"Bu 3","C",-5.45,13.78,1,1,1,0,0,0,0,0
"Conda","C",-4.5,11.94,1,1,1,0,0,0,0,0
"Dimba","C",-5.28,14.87,3,1,1,0,0,0,0,0
"Djambala","C",-2.54,14.75,0,1,0,1,0,0,0,0
"Fignou 1","C",-4.52,11.98,0,1,0,1,0,0,0,0
"Fignou 4","C",-4.52,11.98,0,2,0,2,0,0,0,0
"Galintsoa","C",-3.93,14.92,0,1,0,0,0,0,1,0
"Gamboma","C",-1.83,15.83,0,2,0,0,0,0,2,0
"Gangalingolo","C",-4.22,14.15,0,1,0,0,0,0,1,0
"Gankieli","C",-1.72,15.92,0,1,0,0,0,0,1,0
"Gombe-Point","C",-4.3,15.28,3,9,4,0,0,0,5,0
"GPS 205","C",-4.43,13.61,1,0,0,0,0,0,0,0
"Gray Sands","C",-4.39,11.66,2,2,1,0,0,0,1,0
"Île de la Funa","C",-4.32,15.35,0,1,0,1,0,0,0,0
"Île des Mimosas","C",-4.33,15.23,1,1,1,0,0,0,0,0
"Imbama","C",-3.45,15.7,0,1,0,1,0,0,0,0
"Impe","C",-2.73,15.27,0,1,0,1,0,0,0,0
"Ingamfini 1","C",-3.88,15.67,0,1,0,1,0,0,0,0
"Ingamfini 2","C",-3.85,15.65,0,1,0,1,0,0,0,0
"Ingolo","C",-3.47,15.33,0,1,0,1,0,0,0,0
"Inoni","C",-3.03,15.33,0,1,0,1,0,0,0,0
"Inoni Falaise","C",-3.02,15.67,0,2,0,2,0,0,0,0
"ISO 21","C",-4.35,11.63,1,0,0,0,0,0,0,0
"Itebe","C",-2.99,14.15,0,1,0,1,0,0,0,0
"Kamuna","C",-4.33,15.33,2,1,1,0,0,0,0,0
"Kankouara 1","C",-2.32,14.53,0,1,0,1,0,0,0,0
"Kankouara 2","C",-2.32,14.53,0,1,0,1,0,0,0,0
"Kay Ladio","C",-5.13,14.01,2,0,0,0,0,0,0,0
"Kayes","C",-4.42,11.7,2,5,3,1,0,0,1,0
"Kazu 1","C",-5.5,13.74,1,0,0,0,0,0,0,0
"Kazu 2","C",-5.5,13.74,1,0,0,0,0,0,0,0
"Kazu 4","C",-5.52,13.73,1,1,0,1,0,0,0,0
"Kazu 6","C",-5.52,13.73,0,2,0,2,0,0,0,0
"KCS-6","C",-5.16,14.02,1,0,0,0,0,0,0,0
"KCS-7","C",-5.15,14.01,1,0,0,0,0,0,0,0
"KCS-8","C",-5.17,14.02,1,0,0,0,0,0,0,0
"Kele","C",-5.26,14.71,1,0,0,0,0,0,0,0
"Kibula","C",-5.18,14.06,2,0,0,0,0,0,0,0
"Kilodia","C",-4.29,14.36,0,3,0,3,0,0,0,0
"Kindangakanzi","C",-4.43,13.63,1,1,1,0,0,0,0,0
"Kindoki","C",-5.07,15.01,6,16,11,5,0,0,0,0
"Kindu","C",-4.95,13.61,1,3,2,1,0,0,0,0
"Kingoyi","C",-4.3,14.33,1,1,1,0,0,0,0,0
"Kinkinzi","C",-5.73,15.14,0,1,0,1,0,0,0,0
"Kinsala","C",-5.73,15.14,0,2,0,0,0,0,2,0
"Kinshasa-Kingabwa/Ngombela","C",-4.33,15.34,2,2,1,0,0,0,0,1
"Kisala Singa","C",-4.76,13.01,0,8,0,0,0,0,8,0
"Kitala","C",-5.55,14.87,1,4,3,0,1,0,0,0
"Kitchounga","C",-4.3,14.32,2,1,1,0,0,0,0,0
"Kitsounga 1","C",-3.97,14.93,0,1,0,1,0,0,0,0
"Konga","C",-2.33,12.79,0,1,0,1,0,0,0,0
"Kongo dia Vanga","C",-5.77,13.7,2,0,0,0,0,0,0,0
"Kwimba","C",-5.64,14.88,1,1,0,0,0,0,1,0
"Lac Ndembo","C",-4.35,11.65,3,3,3,0,0,0,0,0
"Lac Tchitembo","C",-4.18,11.39,0,1,0,0,0,0,0,1
"Lamba","C",-4.37,11.61,2,2,2,0,0,0,0,0
"Lékana","C",-2.33,14.58,0,1,0,1,0,0,0,0
"Lemfu","C",-5.06,15.01,0,1,0,1,0,0,0,0
"Les Saras","C",-4.18,12.28,0,1,0,1,0,0,0,0
"Loango","C",-4.65,11.79,0,1,0,0,0,0,0,1
"Loubanzi","C",-4.5,11.87,2,1,1,0,0,0,0,0
"Loukoko 1","C",-4.52,14.6,0,1,0,1,0,0,0,0
"Lovo","C",-5.73,14.46,2,3,1,0,0,0,2,0
"Luki","C",-5.61,13.12,0,9,0,1,0,5,3,0
"Lukula","C",-5.44,12.96,0,4,0,3,0,0,1,0
"Madingo-Kayes","C",-4.43,11.7,3,2,2,0,0,0,0,0
"Mafamba","C",-3.37,16.18,0,1,0,1,0,0,0,0
"Mah 1","C",-3.34,15.49,0,1,0,1,0,0,0,0
"Mah 2","C",-3.33,15.47,0,1,0,1,0,0,0,0
"Makongo","C",-5.19,15.55,1,0,0,0,0,0,0,0
"Makuti 1","C",-4.29,14.33,1,1,1,0,0,0,0,0
"Makuti 3","C",-4.29,14.33,1,1,1,0,0,0,0,0
"Maluende","C",-4.37,13.82,1,0,0,0,0,0,0,0
"Mamfulu","C",-4.3,14.33,1,0,0,0,0,0,0,0
"Mamfulu b","C",-4.3,14.33,1,1,1,0,0,0,0,0
"Mamfulu c","C",-4.29,14.33,1,0,0,0,0,0,0,0
"Mantsetsi","C",-4.95,13.63,1,3,0,0,0,0,3,0
"Masamasa 1","C",-3.88,14.88,0,1,0,1,0,0,0,0
"Masamasa II","C",-3.88,14.88,0,1,0,1,0,0,0,0
"Mbafu","C",-5.43,14.26,1,2,0,0,0,0,2,0
"Mbanza 2","C",-5.73,13.73,2,4,0,4,0,0,0,0
"Mbanza Mbata","C",-5.85,15.13,1,0,0,0,0,0,0,0
"Mbanza Ngungu","C",-5.25,14.86,1,0,0,0,0,0,0,0
"Meningue","C",-4.27,11.77,2,1,1,0,0,0,0,0
"Mindoundou","C",-4.31,14.31,1,0,0,0,0,0,0,0
"Misenga","C",-4.37,14.31,1,2,2,0,0,0,0,0
"Mongo","C",-5.62,14.6,3,0,0,0,0,0,0,0
"Mont Barnier","C",-4.2,15.21,0,1,0,1,0,0,0,0
"Mouadabambi","C",-4.43,13.62,1,0,0,0,0,0,0,0
"Mouambe","C",-2.92,14.63,0,1,0,0,0,0,1,0
"Moubiri","C",-3.87,13.75,0,4,0,4,0,0,0,0
"Mpassa","C",-4.3,14.27,0,1,0,1,0,0,0,0
"Mpula","C",-4.3,14.34,1,0,0,0,0,0,0,0
"Muanda 13","C",-5.97,12.45,0,1,0,1,0,0,0,0
"Muanda 6","C",-5.89,12.3,0,2,0,2,0,0,0,0
"Mvindou","C",-4.47,11.95,1,6,5,1,0,0,0,0
"Nduizi","C",-5.74,13.75,1,5,0,5,0,0,0,0
"NDZ-1","C",-5.73,13.75,1,0,0,0,0,0,0,0
"NDZ-10","C",-5.74,13.73,1,0,0,0,0,0,0,0
"NDZ-14","C",-5.77,13.74,1,0,0,0,0,0,0,0
"NDZ-15","C",-5.76,13.74,1,0,0,0,0,0,0,0
"NDZ-2","C",-5.73,13.75,1,0,0,0,0,0,0,0
"NDZ-3","C",-5.73,13.75,1,0,0,0,0,0,0,0
"NDZ-7","C",-5.74,13.75,1,0,0,0,0,0,0,0
"Ngidi","C",-4.07,15.08,0,1,0,1,0,0,0,0
"Ngongo Mbata","C",-5.78,15.12,5,16,9,6,0,0,1,0
"Ngongo Mbata Village","C",-5.77,15.11,0,1,0,1,0,0,0,0
"Ngoulonkila 1","C",-2.43,14.58,0,1,0,1,0,0,0,0
"Ngoulonkila 2","C",-2.42,14.58,0,1,0,1,0,0,0,0
"Ngovo","C",-5.31,14.92,2,2,2,0,0,0,0,0
"Nguemba","C",-5.77,13.74,0,2,0,2,0,0,0,0
"Nkabi","C",-4.25,14.4,1,1,1,0,0,0,0,0
"Nkamba","C",-5.75,14.44,0,1,0,1,0,0,0,0
"Nkila-Ntari","C",-4.13,13.85,1,0,0,0,0,0,0,0
"Nkondi","C",-4.92,12.97,0,1,0,0,0,0,1,0
"Nkumba","C",-5.55,14.87,1,0,0,0,0,0,0,0
"Nsele","C",-4.23,15.55,0,1,0,0,0,0,1,0
"Ntadi Ntadi","C",-5.75,14.58,1,1,1,0,0,0,0,0
"Ntadi Yomba","C",-4.25,13.77,2,5,3,0,2,0,0,0
"Ntadiou-Moubouka","C",-4.37,13.82,1,0,0,0,0,0,0,0
"Ntende","C",-4.33,15.33,0,1,0,1,0,0,0,0
"Ntominsié","C",-4.29,14.33,1,1,1,0,0,0,0,0
"Ntomissengué","C",-4.3,14.33,1,0,0,0,0,0,0,0
"Ntompula","C",-4.3,14.33,1,0,0,0,0,0,0,0
"Ntsimou","C",-3.57,15.21,0,2,0,1,0,0,1,0
"Nzabi","C",-2.38,14.45,0,1,0,1,0,0,0,0
"Obelango","C",-1.27,15.46,0,1,0,1,0,0,0,0
"Oka","C",-3.58,15.25,0,1,0,1,0,0,0,0
"Okiéni","C",-3.17,16.05,0,1,0,1,0,0,0,0
"Okoyo","C",-1.35,15.2,0,1,0,0,0,0,1,0
"Ongia","C",-2.43,14.98,0,1,0,1,0,0,0,0
"Ossa","C",-2.52,15.25,0,1,0,1,0,0,0,0
"Point-Noire","C",-4.75,11.85,0,5,0,1,1,0,2,1
"Sakuzi","C",-5.17,14.01,3,11,4,6,0,0,1,0
"Sumbi","C",-4.99,13.26,3,0,0,0,0,0,0,0
"Tandou-Youmbi","C",-4.42,11.69,2,1,1,0,0,0,0,0
"Tchissanga","C",-4.54,11.8,2,9,8,0,0,0,1,0
"Tovo","C",-5.76,14.47,0,12,0,11,1,0,0,0
"Tovo 2","C",-5.76,14.47,0,1,0,1,0,0,0,0
"Travers-Banc","C",-4.28,14.34,1,0,0,0,0,0,0,0
"Travers-Blanc","C",-4.28,14.34,0,1,0,1,0,0,0,0
"Tsabouka","C",-4.26,14.43,0,2,0,2,0,0,0,0
"Youlouganda","C",-4.44,13.61,1,0,0,0,0,0,0,0
"Balongoi","D",4.13,18.64,3,0,0,0,0,0,0,0
"Bangui","D",4.35,18.55,1,0,0,0,0,0,0,0
"Batalimo","D",3.68,18.46,1,8,3,5,0,0,0,0
"Batanga","D",3.71,18.59,4,0,0,0,0,0,0,0
"Be Yole","D",5.9,15.6,0,2,0,0,2,0,0,0
"Bécaré II","D",3.53,16.04,0,1,0,1,0,0,0,0
"Bobélé 2","D",4.03,18.38,0,1,0,1,0,0,0,0
"Bodingue","D",3.63,16.84,0,3,0,0,0,0,0,3
"Boduna","D",5.11,19.74,1,0,0,0,0,0,0,0
"Bomboko","D",3.91,18.59,1,0,0,0,0,0,0,0
"Boua","D",4.08,17.05,0,4,0,4,0,0,0,0
"Carrieres","D",3.77,17.51,0,2,0,2,0,0,0,0
"Dama 1","D",5.11,19.42,1,0,0,0,0,0,0,0
"Dokeve 2","D",5.13,19.52,2,0,0,0,0,0,0,0
"Dongo","D",2.72,18.4,5,0,0,0,0,0,0,0
"Eyo","D",3.66,18.48,0,2,0,2,0,0,0,0
"Gbandami","D",5.11,19.82,2,0,0,0,0,0,0,0
"Gobongo 1","D",4.42,18.55,0,1,0,1,0,0,0,0
"Ilawa","D",3,18.69,2,0,0,0,0,0,0,0
"Île de Ngara","D",4.03,18.38,0,1,0,1,0,0,0,0
"Imese","D",2.12,18.11,1,0,0,0,0,0,0,0
"Kenie Branch","D",2.37,16.14,0,5,0,0,0,5,0,0
"Kouango","D",4.99,19.98,1,0,0,0,0,0,0,0
"Kpetene","D",4.9,19.07,2,0,0,0,0,0,0,0
"Lebe","D",3.76,17.51,0,11,0,11,0,0,0,0
"Libenge","D",3.65,18.63,4,0,0,0,0,0,0,0
"Limbumba (LM)","D",3.66,16.86,0,4,0,4,0,0,0,0
"Limbumba (LM)/Ndele (Pos A)","D",3.65,16.87,0,1,0,1,0,0,0,0
"Lingbangbo","D",3.63,18.4,0,5,0,4,0,0,1,0
"Maluba","D",2.81,18.52,7,6,4,2,0,0,0,0
"Maoko","D",3.41,18.64,4,0,0,0,0,0,0,0
"Mbaere","D",3.99,16.92,0,3,0,0,0,0,0,3
"Mbati-Ngombe","D",2.89,18.5,4,0,0,0,0,0,0,0
"Mboko 1","D",4.37,18.69,3,0,0,0,0,0,0,0
"Mboma","D",3.95,18.65,2,1,0,0,1,0,0,0
"Modoubou","D",2.94,16.35,0,5,0,0,0,5,0,0
"Mokelo","D",4.06,18.64,3,0,0,0,0,0,0,0
"Moloukou","D",3.74,17.51,0,6,0,4,0,0,2,0
"Mondoli","D",3.98,18.64,2,0,0,0,0,0,0,0
"Mondongué","D",3.65,18.56,0,1,0,1,0,0,0,0
"Motenge-Boma","D",3.24,18.65,3,0,0,0,0,0,0,0
"Ndakan","D",2.35,16.15,0,4,0,0,0,4,0,0
"Ndengu","D",5.1,19.84,1,0,0,0,0,0,0,0
"Ngotto","D",3.83,17.49,0,19,0,19,0,0,0,0
"Nzambi","D",3.16,18.64,5,0,0,0,0,0,0,0
"Pendèrè-Senguè/Gobongo 1","D",4.43,18.55,0,1,0,1,0,0,0,0
"Poutem","D",4.03,17.32,0,5,0,5,0,0,0,0
"Sabélé","D",3.33,16.19,0,2,0,2,0,0,0,0
"Sidi","D",5.02,19.87,1,0,0,0,0,0,0,0
"Sikilongo","D",3.65,18.56,0,1,0,1,0,0,0,0
"Té Ndongué","D",5.72,18,0,5,0,5,0,0,0,0
"Tia 1","D",5.85,15.5,0,1,0,0,1,0,0,0
"Upper Ndoki","D",2.47,16.32,0,5,0,0,0,5,0,0
"Zupaya","D",5.58,15.34,0,1,0,0,1,0,0,0
"12 km Dédé creek","E",2.2,16.51,0,5,0,0,0,5,0,0
"Baï Bomassa","E",2.2,16.19,0,1,0,0,0,0,1,0
"Bai Dédé Creek","E",2.21,16.53,0,5,0,0,0,5,0,0
"Bobusa","E",-1.05,16.92,4,0,0,0,0,0,0,0
"Boenja","E",0.08,17.48,1,0,0,0,0,0,0,0
"Bojenjo","E",-0.01,17.43,3,0,0,0,0,0,0,0
"Bokonongo","E",0.2,17.13,3,0,0,0,0,0,0,0
"Bokuma","E",0.1,17.48,2,0,0,0,0,0,0,0
"Boleko","E",-0.81,17.22,5,0,0,0,0,0,0,0
"Bomassa","E",2.2,16.19,0,2,0,1,0,0,1,0
"Bondo-Mission","E",-0.4,17.17,1,0,0,0,0,0,0,0
"Bonga","E",-1.12,16.87,4,0,0,0,0,0,0,0
"Botwale","E",-0.55,17.37,3,0,0,0,0,0,0,0
"Boundji","E",-1.03,15.36,0,1,0,0,0,0,1,0
"Boyenge","E",-0.84,17.2,2,0,0,0,0,0,0,0
"Djaka River","E",1.66,16.44,0,1,0,1,0,0,0,0
"Ebaleki River","E",3.14,17.5,0,1,0,1,0,0,0,0
"Ebambe","E",0.29,17.39,3,0,0,0,0,0,0,0
"Epena","E",1.35,17.45,1,0,0,0,0,0,0,0
"Goalake","E",2.32,16.34,0,1,0,0,0,1,0,0
"Goaleke","E",2.32,16.34,0,4,0,0,0,4,0,0
"Ibamba/P2","E",1.22,16.84,1,0,0,0,0,0,0,0
"Ikelemba","E",1.23,16.5,3,3,0,0,0,0,3,0
"Ilamba","E",1.21,16.77,0,2,0,0,0,0,2,0
"Ilebo","E",-0.45,17.43,1,0,0,0,0,0,0,0
"Inyenge","E",0.2,17.11,1,0,0,0,0,0,0,0
"Itandi","E",0.7,16.59,1,0,0,0,0,0,0,0
"Itanga","E",1.21,17.41,3,0,0,0,0,0,0,0
"Jeke","E",1.06,17.31,3,0,0,0,0,0,0,0
"Kabo","E",2.03,16.08,0,1,0,0,0,0,1,0
"Komo River","E",1.45,17.07,0,1,0,0,0,0,1,0
"Konda","E",1.78,16.15,3,0,0,0,0,0,0,0
"Landjoué","E",0.77,15.36,0,2,0,2,0,0,0,0
"Leme","E",1.88,16.11,2,0,0,0,0,0,0,0
"Likaya","E",-0.34,17.13,1,0,0,0,0,0,0,0
"Likunda","E",0.73,17.13,2,0,0,0,0,0,0,0
"Likwala-Esobe km 186","E",-0.05,17.41,0,1,0,1,0,0,0,0
"Likwala-Esobe km 401","E",0.82,17.09,1,0,0,0,0,0,0,0
"Liouesso","E",1.05,15.69,0,1,0,0,0,0,1,0
"Loboko","E",-0.11,17.13,4,0,0,0,0,0,0,0
"Lokolélé","E",-0.1,17.42,2,0,0,0,0,0,0,0
"Lopola","E",3.04,17.3,0,1,0,0,0,0,1,0
"Loundoungou","E",2.64,17.18,0,2,0,0,0,0,2,0
"Lower Mabale","E",2.64,16.66,0,5,0,0,0,5,0,0
"Maboko","E",1.73,16.14,4,0,0,0,0,0,0,0
"Mai impembe","E",2.09,16.09,1,0,0,0,0,0,0,0
"Mambili River","E",0.35,15.44,0,1,0,1,0,0,0,0
"Mandombe","E",1.12,16.52,5,0,0,0,0,0,0,0
"Matoto","E",1.28,16.43,5,0,0,0,0,0,0,0
"Mbeli creek","E",2.25,16.4,0,5,0,0,0,5,0,0
"Mboua Mboua/P1","E",1.45,16.21,4,0,0,0,0,0,0,0
"Mid Esimbi","E",2.44,16.46,0,5,0,0,0,5,0,0
"Mingingi","E",2.59,16.5,0,5,0,0,0,5,0,0
"Misongo","E",-0.41,17.36,2,0,0,0,0,0,0,0
"Mitula","E",0.29,17.05,2,1,1,0,0,0,0,0
"Mobaka","E",-0.37,17.13,2,1,1,0,0,0,0,0
"Mokobo","E",1.87,16.62,0,2,0,0,0,0,2,0
"Mokounounou 1a","E",1.93,15.33,0,1,0,1,0,0,0,0
"Molanda","E",0.95,16.54,5,0,0,0,0,0,0,0
"Mondika","E",2.35,16.28,0,5,0,0,0,5,0,0
"Mongambo","E",2.69,16.78,0,5,0,0,0,5,0,0
"Monjolomba","E",-0.68,17.17,4,0,0,0,0,0,0,0
"Mosanya","E",1.21,16.45,3,0,0,0,0,0,0,0
"Mosenge","E",0.66,17.17,2,0,0,0,0,0,0,0
"Mosengi","E",0.25,17.45,2,0,0,0,0,0,0,0
"Motaba","E",2.71,16.93,0,5,0,0,0,5,0,0
"Motoli","E",1.23,16.47,1,0,0,0,0,0,0,0
"Munda","E",1.16,17.36,3,11,9,2,0,0,0,0
"Ndoki River","E",2.15,16.26,0,1,0,1,0,0,0,0
"Ngama","E",1.96,15.55,3,0,0,0,0,0,0,0
"Ngoko Fkm 17 (Elali)","E",1.76,16,4,0,0,0,0,0,0,0
"Ngombé","E",1.43,16.15,0,2,0,2,0,0,0,0
"Ngombe","E",-0.85,17.19,4,0,0,0,0,0,0,0
"Ngombe","E",0.37,16.99,2,0,0,0,0,0,0,0
"Ngwangala","E",1.91,15.73,1,0,0,0,0,0,0,0
"Ouesso","E",1.62,16.06,6,0,0,0,0,0,0,0
"P3","E",2.05,16.38,1,0,0,0,0,0,0,0
"P4","E",2.01,16.39,1,0,0,0,0,0,0,0
"Pandama","E",1.78,15.88,5,0,0,0,0,0,0,0
"Pikounda","E",0.55,16.64,0,2,0,1,0,0,1,0
"Pikunda","E",0.55,16.64,8,3,2,1,0,0,0,0
"Pokola","E",1.4,16.32,0,2,0,0,0,0,2,0
"Ponga","E",1.93,15.63,1,0,0,0,0,0,0,0
"Sangha Fkm 40","E",-1.05,16.93,2,0,0,0,0,0,0,0
"Sangha Fkm 428","E",1.25,16.44,2,0,0,0,0,0,0,0
"Sangha Fkm 72","E",-0.7,17.2,1,0,0,0,0,0,0,0
"Sosolo","E",-0.89,17.13,5,0,0,0,0,0,0,0
"Upper Esimbi","E",2.54,16.5,0,5,0,0,0,5,0,0
"Wali","E",2.22,16.21,0,5,0,0,0,5,0,0
"West Ndoki Lombé","E",2.19,16.4,0,5,0,0,0,5,0,0
"Yumba","E",-0.35,17.37,4,0,0,0,0,0,0,0
"Balinga-Bokanda","F",-0.31,21.13,7,0,0,0,0,0,0,0
"Balinga-Wema","F",-0.53,21.79,4,0,0,0,0,0,0,0
"Balolombo","F",-0.27,19.63,4,0,0,0,0,0,0,0
"Balombi","F",-0.54,22.01,4,0,0,0,0,0,0,0
"Bamanya","F",0.01,18.31,9,9,2,0,0,0,2,5
"Bampete","F",-1.29,20.37,3,0,0,0,0,0,0,0
"Bampoko","F",-0.15,18.8,6,0,0,0,0,0,0,0
"Baringa","F",0.73,20.74,7,3,3,0,0,0,0,0
"Basankusu","F",1.23,19.8,4,0,0,0,0,0,0,0
"Baulu","F",0.55,20.93,4,0,0,0,0,0,0,0
"Befili","F",-0.98,19.4,3,0,0,0,0,0,0,0
"Befori","F",0.17,22.4,2,0,0,0,0,0,0,0
"Bekako","F",0.3,21.17,3,0,0,0,0,0,0,0
"Bekongo","F",-1.84,20.77,4,0,0,0,0,0,0,0
"Bempumba","F",-0.43,19.16,7,0,0,0,0,0,0,0
"Benkombo","F",-0.25,18.89,2,0,0,0,0,0,0,0
"Besau","F",-1.24,20.37,8,0,0,0,0,0,0,0
"Besongo","F",-0.2,19.98,13,0,0,0,0,0,0,0
"Bikoro","F",-0.74,18.13,1,0,0,0,0,0,0,0
"Boangi","F",-1.91,20.88,2,0,0,0,0,0,0,0
"Bobangi","F",-0.11,17.72,1,0,0,0,0,0,0,0
"Bobulu","F",1.44,18.04,1,0,0,0,0,0,0,0
"Boende","F",-0.28,20.88,9,0,0,0,0,0,0,0
"Boenjola-Ekendambolo","F",-1.11,19.96,2,0,0,0,0,0,0,0
"Bofomwa","F",-0.53,19.84,2,0,0,0,0,0,0,0
"Bofoy Bokangansoso","F",-0.35,20.78,6,0,0,0,0,0,0,0
"Bokala","F",-0.56,19.8,1,0,0,0,0,0,0,0
"Bokao","F",-0.86,22.88,3,0,0,0,0,0,0,0
"Bokele","F",-0.1,18.59,9,5,3,0,0,0,0,2
"Bokenda","F",-0.22,18.85,1,0,0,0,0,0,0,0
"Bokene-Itela","F",-0.73,22.53,1,0,0,0,0,0,0,0
"Bokene-Nongo","F",-0.73,22.56,5,0,0,0,0,0,0,0
"Bokenyola","F",-0.31,18.64,1,0,0,0,0,0,0,0
"Bokolongo","F",-0.75,19.84,2,0,0,0,0,0,0,0
"Bokote","F",-0.21,20.21,9,0,0,0,0,0,0,0
"Bokuma","F",-0.11,18.7,10,6,5,0,0,0,0,1
"Bokungu","F",-0.62,22.31,2,0,0,0,0,0,0,0
"Bokungu Moke","F",-0.62,22.35,3,0,0,0,0,0,0,0
"Bokwango","F",0.1,17.78,2,0,0,0,0,0,0,0
"Boloka","F",-0.74,19.58,1,0,0,0,0,0,0,0
"Bololo","F",-1.01,19.96,1,0,0,0,0,0,0,0
"Bolomba","F",0.35,19.23,4,0,0,0,0,0,0,0
"Bolondo","F",-0.31,21.25,9,6,2,0,0,0,0,4
"Bolongo","F",0.77,18.51,8,0,0,0,0,0,0,0
"Bolumbu","F",0.68,17.88,1,0,0,0,0,0,0,0
"Bomate","F",-1.21,19.76,4,0,0,0,0,0,0,0
"Bombimba","F",0.43,19.59,6,0,0,0,0,0,0,0
"Bompanga","F",0.92,20.47,1,0,0,0,0,0,0,0
"Bompanga-Nganda","F",0.46,20.97,1,0,0,0,0,0,0,0
"Bompoma","F",-0.59,19.79,2,0,0,0,0,0,0,0
"Bompoma","F",-0.79,19.4,1,0,0,0,0,0,0,0
"Bondo","F",0.24,18.34,4,0,0,0,0,0,0,0
"Bondombe-Etat","F",-0.78,22.75,2,0,0,0,0,0,0,0
"Bondongo-Losombo","F",-0.98,18.7,1,0,0,0,0,0,0,0
"Bongandanga","F",1.51,21.07,1,0,0,0,0,0,0,0
"Bonginda I","F",0.96,18.75,3,0,0,0,0,0,0,0
"Bonginji","F",-0.99,20.28,3,0,0,0,0,0,0,0
"Bonkake","F",-0.84,19.85,11,0,0,0,0,0,0,0
"Bonkelo","F",1.1,20.08,1,0,0,0,0,0,0,0
"Bonkita","F",1.27,19.55,2,0,0,0,0,0,0,0
"Bosanga","F",-0.37,20.71,3,0,0,0,0,0,0,0
"Boso-Njafo","F",1.13,19.21,5,4,4,0,0,0,0,0
"Boso-Njafo-Mission","F",1.14,19.26,2,0,0,0,0,0,0,0
"Boso-Njafo-Plantation","F",1.15,19.19,1,0,0,0,0,0,0,0
"Bosulu","F",1.45,20.65,1,0,0,0,0,0,0,0
"Boteka","F",-0.4,19.11,1,0,0,0,0,0,0,0
"Botendo","F",-0.27,18.91,6,0,0,0,0,0,0,0
"Botunu","F",-0.64,17.7,3,0,0,0,0,0,0,0
"Bousoka-Mangombe","F",1.87,18.07,2,0,0,0,0,0,0,0
"Boyeka","F",0.05,18.33,1,0,0,0,0,0,0,0
"Boyela","F",-0.6,19.45,7,0,0,0,0,0,0,0
"Boyela","F",1.33,20.34,3,0,0,0,0,0,0,0
"Boyenge","F",0.38,18.88,8,0,0,0,0,0,0,0
"Boyoka","F",1.09,17.9,3,0,0,0,0,0,0,0
"Bruxelles-Nganda","F",-0.38,17.72,1,0,0,0,0,0,0,0
"Busira I","F",-0.36,20.61,1,0,0,0,0,0,0,0
"Djombo-Etat","F",1.35,20.38,1,0,0,0,0,0,0,0
"Eanja-Ilanga","F",-0.56,20.01,1,0,0,0,0,0,0,0
"Eanja Isongo Besombo","F",-0.62,20.07,1,0,0,0,0,0,0,0
"Ebeka","F",1.43,18.03,2,0,0,0,0,0,0,0
"Ekoli-Bokungu","F",-0.27,20.86,1,0,0,0,0,0,0,0
"Enaja","F",-0.23,21.24,4,0,0,0,0,0,0,0
"Enaja Bonanga Wa Liko","F",-0.65,20.09,2,0,0,0,0,0,0,0
"Engengele","F",2.09,22.67,1,0,0,0,0,0,0,0
"Esangaonje","F",-0.44,21.55,7,0,0,0,0,0,0,0
"Eungu","F",-0.49,19.98,1,0,0,0,0,0,0,0
"Gombe","F",-0.7,17.58,4,0,0,0,0,0,0,0
"Ibunga","F",0.3,18.57,1,0,0,0,0,0,0,0
"Ifomo","F",-0.57,21.89,2,0,0,0,0,0,0,0
"Ifulu","F",-0.53,19.43,6,0,0,0,0,0,0,0
"Ikaala","F",0.98,20.34,2,0,0,0,0,0,0,0
"Ikali","F",-2.03,21.04,1,0,0,0,0,0,0,0
"Ikembeli","F",-0.36,20.58,7,0,0,0,0,0,0,0
"Ikenge","F",-0.12,18.78,10,0,0,0,0,0,0,0
"Ikengo","F",-0.13,18.13,1,0,0,0,0,0,0,0
"Ikindantoi","F",-0.77,19.83,1,0,0,0,0,0,0,0
"Ikomaloki","F",-1.21,23.77,1,0,0,0,0,0,0,0
"Ikua","F",-0.11,18.65,4,0,0,0,0,0,0,0
"Ilanga","F",0.28,17.9,2,0,0,0,0,0,0,0
"Ilebo","F",0.98,18.79,1,0,0,0,0,0,0,0
"Ilemba","F",-0.26,21.09,3,0,0,0,0,0,0,0
"Imbonga","F",-0.82,19.79,17,6,1,0,0,0,0,5
"Inganda","F",-0.02,18.21,5,0,0,0,0,0,0,0
"Inganda","F",1.02,18.85,1,0,0,0,0,0,0,0
"Ingende","F",-0.31,18.97,8,0,0,0,0,0,0,0
"Ingonda Bosopela","F",0.79,18.55,7,0,0,0,0,0,0,0
"Inkaka","F",-0.21,20.26,11,0,0,0,0,0,0,0
"Inkunji","F",1.5,20.96,1,0,0,0,0,0,0,0
"Inyele","F",-0.24,19.75,1,0,0,0,0,0,0,0
"Ipono","F",1.02,20.22,1,0,0,0,0,0,0,0
"Irebu","F",-0.61,17.77,1,0,0,0,0,0,0,0
"Isaka-Elinga","F",-0.67,20.2,6,3,2,0,0,0,0,1
"Isaka-Nkundo","F",-0.67,20.17,6,0,0,0,0,0,0,0
"Isambo-Elongo","F",-0.37,21.48,3,0,0,0,0,0,0,0
"Isenge-Moke","F",-0.17,18.82,2,0,0,0,0,0,0,0
"Isia","F",0.26,18.3,1,0,0,0,0,0,0,0
"Iteli","F",0.31,18.62,14,0,0,0,0,0,0,0
"Itumbo","F",-1,20.29,5,0,0,0,0,0,0,0
"Iyonda","F",-0.03,18.19,7,1,1,0,0,0,0,0
"Iyongo-Iyanko","F",-0.31,21.26,3,0,0,0,0,0,0,0
"Kwambili","F",0.16,18.35,5,0,0,0,0,0,0,0
"Libiya","F",1.31,20.15,4,0,0,0,0,0,0,0
"Lifoso","F",0.15,21.54,3,0,0,0,0,0,0,0
"Likuku","F",0.14,21.3,4,0,0,0,0,0,0,0
"Lingomo","F",-1.16,23.54,1,0,0,0,0,0,0,0
"Lingonda","F",-0.21,19.37,3,0,0,0,0,0,0,0
"Lingonju","F",-0.62,19.8,1,0,0,0,0,0,0,0
"Lioko","F",0.1,22.11,1,0,0,0,0,0,0,0
"Lisala","F",2.15,21.52,2,0,0,0,0,0,0,0
"Liyolongo","F",-0.34,20.32,9,0,0,0,0,0,0,0
"Loka","F",0.32,17.95,3,0,0,0,0,0,0,0
"Lokoku","F",2.2,21.4,0,1,0,0,1,0,0,0
"Lokondola","F",-0.67,19.48,13,0,0,0,0,0,0,0
"Lokonge","F",0.09,21.83,7,0,0,0,0,0,0,0
"Lokumo","F",0.35,19.04,5,0,0,0,0,0,0,0
"Lolitama","F",-1.01,23.21,1,0,0,0,0,0,0,0
"Lombe","F",-1.23,19.81,4,0,0,0,0,0,0,0
"Lombo-Lombo","F",-0.8,19.82,1,0,0,0,0,0,0,0
"Longa","F",-0.25,18.88,8,3,0,0,0,0,2,1
"Loolo","F",-0.25,19.18,1,0,0,0,0,0,0,0
"Losombo","F",1.11,19.09,6,0,0,0,0,0,0,0
"Lotoko","F",-0.29,19.87,2,0,0,0,0,0,0,0
"Lotumbe","F",-0.47,19.38,2,0,0,0,0,0,0,0
"Lukolela","F",-1.06,17.18,2,0,0,0,0,0,0,0
"Lusako","F",-0.92,19.96,7,0,0,0,0,0,0,0
"Maberu","F",-1.07,17.26,2,0,0,0,0,0,0,0
"Malanga","F",1.14,20.01,1,0,0,0,0,0,0,0
"Malelembe","F",0.25,18.4,6,0,0,0,0,0,0,0
"Manjinji","F",1.33,20.23,1,0,0,0,0,0,0,0
"Mbala","F",-0.42,19.31,1,0,0,0,0,0,0,0
"Mbandaka","F",0.06,18.26,10,3,2,0,0,0,0,1
"Mobele","F",0.64,18.38,2,0,0,0,0,0,0,0
"Moenge","F",2.05,22.86,4,0,0,0,0,0,0,0
"Molanga","F",1.14,20.01,3,0,0,0,0,0,0,0
"Momboyo I","F",-1.15,20.31,3,0,0,0,0,0,0,0
"Mondjo","F",0.37,19.27,1,0,0,0,0,0,0,0
"Monieka","F",-0.21,20.05,7,0,0,0,0,0,0,0
"Monkoto","F",-1.75,20.68,6,0,0,0,0,0,0,0
"Monzambi","F",0.3,18.54,7,0,0,0,0,0,0,0
"Mpaku","F",-0.14,18.57,1,0,0,0,0,0,0,0
"Mpokioko","F",0.08,22.07,2,0,0,0,0,0,0,0
"Mpumo","F",-0.81,19.7,2,0,0,0,0,0,0,0
"Nganda Ikelemba","F",0.32,18.78,1,0,0,0,0,0,0,0
"Ngbanja","F",1.67,18.09,4,0,0,0,0,0,0,0
"Ngombe-Malala","F",-0.33,20.64,4,0,0,0,0,0,0,0
"Ngongo","F",0.12,21.39,2,0,0,0,0,0,0,0
"Nkasa","F",-0.78,19.62,10,0,0,0,0,0,0,0
"Nkasa Elali","F",-0.77,19.62,4,0,0,0,0,0,0,0
"Nkemasoni","F",-1.99,20.97,2,0,0,0,0,0,0,0
"Nkile","F",-0.1,18.67,12,3,3,0,0,0,0,0
"Nkole","F",1.04,18.86,1,0,0,0,0,0,0,0
"Nkoma","F",-0.51,21.75,2,0,0,0,0,0,0,0
"Nkomba","F",2.17,21.59,2,0,0,0,0,0,0,0
"Nkombo","F",-0.11,18.62,7,0,0,0,0,0,0,0
"Nkoyakoli","F",-0.37,20.52,4,0,0,0,0,0,0,0
"Nkuse","F",-0.4,20.01,7,0,0,0,0,0,0,0
"Ntomba","F",0.41,19.56,3,0,0,0,0,0,0,0
"Ruki I","F",-0.35,19.01,3,0,0,0,0,0,0,0
"Salonga","F",-1.71,20.55,0,1,0,1,0,0,0,0
"Sungu","F",-1.03,17.33,6,0,0,0,0,0,0,0
"Tofumbo","F",0.05,22.01,1,0,0,0,0,0,0,0
"Vieux-Wema","F",-0.57,21.92,6,0,0,0,0,0,0,0
"Wafanya","F",-1.35,20.38,10,5,2,0,0,0,0,3
"Waka","F",-0.94,20.19,2,0,0,0,0,0,0,0
"Waka","F",1,20.21,1,0,0,0,0,0,0,0
"Wema","F",-0.48,21.64,7,0,0,0,0,0,0,0
"Wete","F",-0.6,22.27,4,0,0,0,0,0,0,0
"Yalifita","F",-1.03,23.28,1,0,0,0,0,0,0,0
"Yete","F",-1.18,20.34,8,0,0,0,0,0,0,0
"Yopoko","F",0.16,22.34,3,0,0,0,0,0,0,0
"Baombi II","G",0.66,25.16,1,2,2,0,0,0,0,0
"Bomane Yangwa","G",1.3,23.82,2,2,2,0,0,0,0,0
"Buru","G",3.74,26.9,0,2,0,2,0,0,0,0
"Ilambi Moke","G",0.65,24.23,3,2,2,0,0,0,0,0
"Ituri","G",1.49,28.55,0,27,0,0,0,0,27,0
"Mikweti","G",-1.41,28.59,0,1,0,1,0,0,0,0
"Yaekela","G",0.8,24.29,1,0,0,0,0,0,0,0
"Yangambi","G",0.77,24.44,2,5,4,1,0,0,0,0
"Yantshambi II","G",0.73,24.22,3,1,1,0,0,0,0,0
"Yoko","G",0.28,25.32,0,13,0,13,0,0,0,0
"Mukambo","H",-5.02,16.98,1,0,0,0,0,0,0,0
"Mukila","H",-5.02,16.99,0,7,0,2,1,0,4,0
"Nkar","H",-4.99,19.59,0,3,0,3,0,0,0,0
"Okwon","H",-5,19.6,0,4,0,3,0,0,1,0
"Benfica","I",-8.96,13.19,0,1,0,1,0,0,0,0
"Camissombo","I",-8.16,20.66,0,2,0,0,0,0,2,0
"Cangalonge/Chambuage Mine","I",-8.25,20.75,0,1,0,0,0,0,1,0
"Dundo Airfield","I",-7.37,20.82,0,1,0,1,0,0,0,0
"Furi","I",-7.36,21.2,0,1,0,1,0,0,0,0
"Kamabanga I","I",-9.05,13.08,0,1,0,1,0,0,0,0
"Kimalembe","I",-5.87,15.13,1,0,0,0,0,0,0,0
"Kitala II","I",-9.03,13.08,0,1,0,1,0,0,0,0
"Marrhura","I",-7.36,20.47,0,1,0,1,0,0,0,0
"Matafari","I",-7.37,20.83,0,1,0,0,0,0,1,0
"Mucuquesse 3 Mine","I",-7.63,21.37,0,1,0,0,0,0,1,0
"Ricoco II","I",-7.47,20.85,0,1,0,1,0,0,0,0
"Tchibaba","I",-8.39,20.73,0,1,0,0,1,0,0,0
"Kamilamba","J",-7.81,27.03,4,9,8,0,0,0,1,0
"Katongo","J",-8.21,26.41,3,7,6,1,0,0,0,0
"Katoto","J",-9.19,25.88,0,1,0,0,1,0,0,0
"Kikulu","J",-7.84,26.98,4,9,9,0,0,0,0,0
"Malemba-Nkulu","J",-8.06,26.8,4,15,15,0,0,0,0,0
"Sanga","J",-8.18,26.49,3,13,11,1,1,0,0,0
"Bolaopi","K",3.6,8.72,2,2,2,0,0,0,0,0
"Carboneras","K",3.75,8.75,3,11,11,0,0,0,0,0
